{
"type": "FeatureCollection",
"crs": { "type": "name", "properties": { "name": "urn:ogc:def:crs:OGC:1.3:CRS84" } },
                                                                                                                                  
"features": [
{ "type": "Feature", "properties": { "name": "Coastside Farmers' Market", "zip": 94019, "open_mnt2": "", "open_mnt1": "May - December", "open_hrs1": "9:00 a.m. - 1:00 p.m.", "open_hrs2": "", "open_day2": "", "open_day1": "Saturdays" }, "geometry": { "type": "Point", "coordinates": [ -122.433745572999726, 37.465464408000457, 0.0 ] } },
{ "type": "Feature", "properties": { "name": "Millbrae Certified Farmers' Market", "zip": 94030, "open_mnt2": "", "open_mnt1": "Year Round", "open_hrs1": "8:00 a.m. - 1:00 p.m.", "open_hrs2": "", "open_day2": "", "open_day1": "Saturdays" }, "geometry": { "type": "Point", "coordinates": [ -122.390613979999728, 37.599996458000476, 0.0 ] } },
{ "type": "Feature", "properties": { "name": "San Mateo Farmers' Market", "zip": 94402, "open_mnt2": "", "open_mnt1": "Year Round", "open_hrs1": "9:00 a.m. - 1:00 p.m.", "open_hrs2": "", "open_day2": "", "open_day1": "Saturdays" }, "geometry": { "type": "Point", "coordinates": [ -122.314420991999725, 37.529925689000493, 0.0 ] } },
{ "type": "Feature", "properties": { "name": "Redwood City Kiwanis Certified Farmers' Market", "zip": 94063, "open_mnt2": "", "open_mnt1": "April - November", "open_hrs1": "8:00 a.m. - 12:30 p.m.", "open_hrs2": "", "open_day2": "", "open_day1": "Saturdays" }, "geometry": { "type": "Point", "coordinates": [ -122.215646779999702, 37.483947246000469, 0.0 ] } },
{ "type": "Feature", "properties": { "name": "South San Francisco Certified Farmers' Market", "zip": 94080, "open_mnt2": "", "open_mnt1": "May - October", "open_hrs1": "9:00 a.m. - 1:00 p.m.", "open_hrs2": "", "open_day2": "", "open_day1": "Saturdays" }, "geometry": { "type": "Point", "coordinates": [ -122.427052388999698, 37.655575920000445, 0.0 ] } },
{ "type": "Feature", "properties": { "name": "Foster City Charter Square Farmers' Market", "zip": 94404, "open_mnt2": "Year Round", "open_mnt1": "Year Round", "open_hrs1": "9:00 a.m. - 1:00 p.m.", "open_hrs2": "2:30 p.m. - 6:30 p.m.", "open_day2": "Wednesdays", "open_day1": "Saturdays" }, "geometry": { "type": "Point", "coordinates": [ -122.264300922999723, 37.548717350000459, 0.0 ] } },
{ "type": "Feature", "properties": { "name": "The Fresh Market, Burlingame", "zip": 94010, "open_mnt2": "", "open_mnt1": "March - December", "open_hrs1": "9:00 a.m. - 1:30 p.m.", "open_hrs2": "", "open_day2": "", "open_day1": "Sundays" }, "geometry": { "type": "Point", "coordinates": [ -122.347295629999678, 37.578424899000481, 0.0 ] } },
{ "type": "Feature", "properties": { "name": "Belmont Certified Farmers' Market", "zip": 94402, "open_mnt2": "", "open_mnt1": "Year Round", "open_hrs1": "10:00 a.m. - 2:00 p.m.", "open_hrs2": "", "open_day2": "", "open_day1": "Sundays" }, "geometry": { "type": "Point", "coordinates": [ -122.323459401999685, 37.553345674000468, 0.0 ] } },
{ "type": "Feature", "properties": { "name": "Menlo Park Certified Farmers' Market", "zip": 94025, "open_mnt2": "", "open_mnt1": "Year Round", "open_hrs1": "9:00 a.m. - 1:00 p.m.", "open_hrs2": "", "open_day2": "", "open_day1": "Sundays" }, "geometry": { "type": "Point", "coordinates": [ -122.184356067999715, 37.451375458000484, 0.0 ] } },
{ "type": "Feature", "properties": { "name": "25th Avenue Certified Farmers' Market", "zip": 94403, "open_mnt2": "", "open_mnt1": "May - October", "open_hrs1": "4:00 p.m. - 8:00 p.m.", "open_hrs2": "", "open_day2": "", "open_day1": "Tuesdays" }, "geometry": { "type": "Point", "coordinates": [ -122.309087116999706, 37.543307958000469, 0.0 ] } },
{ "type": "Feature", "properties": { "name": "Kaiser South San Francisco Farmers' Market", "zip": 94080, "open_mnt2": "", "open_mnt1": "May - October", "open_hrs1": "10:00 a.m. - 2:00 p.m.", "open_hrs2": "", "open_day2": "", "open_day1": "Tuesdays" }, "geometry": { "type": "Point", "coordinates": [ -122.437966381999729, 37.657756045000497, 0.0 ] } },
{ "type": "Feature", "properties": { "name": "Kaiser Redwood City Farmers' Market", "zip": 94063, "open_mnt2": "", "open_mnt1": "April - October", "open_hrs1": "10:00 a.m. - 2:00 p.m.", "open_hrs2": "", "open_day2": "", "open_day1": "Wednesdays" }, "geometry": { "type": "Point", "coordinates": [ -122.22303935799971, 37.487573769000448, 0.0 ] } },
{ "type": "Feature", "properties": { "name": "Coastside Farmers' Market", "zip": 94044, "open_mnt2": "", "open_mnt1": "May - December", "open_hrs1": "2:30 p.m. - 6:30 p.m.", "open_hrs2": "", "open_day2": "", "open_day1": "Wednesdays" }, "geometry": { "type": "Point", "coordinates": [ -122.494361148999701, 37.610017799000445, 0.0 ] } },
{ "type": "Feature", "properties": { "name": "Hot Harvest Nights - San Carlos Certified Farmers' Market", "zip": 94070, "open_mnt2": "", "open_mnt1": "May - September", "open_hrs1": "4:00 p.m. - 8:00 p.m.", "open_hrs2": "", "open_day2": "", "open_day1": "Thursdays" }, "geometry": { "type": "Point", "coordinates": [ -122.259509039999728, 37.505087923000474, 0.0 ] } },
{ "type": "Feature", "properties": { "name": "The Fresh Market - Burlingame", "zip": 94010, "open_mnt2": "", "open_mnt1": "May - September", "open_hrs1": "3:00 p.m. - 7:00 p.m.", "open_hrs2": "", "open_day2": "", "open_day1": "Thursdays" }, "geometry": { "type": "Point", "coordinates": [ -122.347295629999678, 37.578424899000481, 0.0 ] } },
{ "type": "Feature", "properties": { "name": "East Palo Alto Community Farmers' Market", "zip": 94303, "open_mnt2": "", "open_mnt1": "April - December", "open_hrs1": "12:00 p.m. - 3:00 p.m.", "open_hrs2": "", "open_day2": "", "open_day1": "Wednesdays" }, "geometry": { "type": "Point", "coordinates": [ -122.132435, 37.472749, 0.0 ] } },
{ "type": "Feature", "properties": { "name": "Pescadero Grown Certified Farmers' Market", "zip": 94060, "open_mnt2": "", "open_mnt1": "June – November", "open_hrs1": "3:00 p.m. - 7:00 p.m.", "open_hrs2": "", "open_day2": "", "open_day1": "Thursdays" }, "geometry": { "type": "Point", "coordinates": [ -122.383109, 37.25283, 0.0 ] } },
{ "type": "Feature", "properties": { "name": "Portola Valley Farmers' Market", "zip": 94028, "open_mnt2": "November – December", "open_mnt1": "May – October", "open_hrs1": "3:00 p.m. - 7:00 p.m.", "open_hrs2": "2:00 p.m. – 5:00 p.m.", "open_day2": "Thursdays", "open_day1": "Thursdays" }, "geometry": { "type": "Point", "coordinates": [ -122.226718, 37.381084, 0.0 ] } },
{ "type": "Feature", "properties": { "name": "Brisbane Community Farmers' Market", "zip": 94005, "open_mnt2": "April – October", "open_mnt1": "November – March", "open_hrs1": "2:30 p.m. - 6:30 p.m.", "open_hrs2": "3:00 p.m. – 7:00 p.m.", "open_day2": "Thursdays", "open_day1": "Thursdays" }, "geometry": { "type": "Point", "coordinates": [ -122.401281, 37.685531, 0.0 ] } },
{ "type": "Feature", "properties": { "name": "Daly City Certified Farmers' Market", "zip": 94015, "open_mnt2": "", "open_mnt1": "Year Round", "open_hrs1": "9:00 a.m. - 1:00 p.m.", "open_hrs2": "9:00 a.m. - 1:00 p.m.", "open_day2": "Saturdays", "open_day1": "Thursdays" }, "geometry": { "type": "Point", "coordinates": [ -122.470824, 37.674353, 0.0 ] } },
{ "type": "Feature", "properties": { "name": "Foster City Jewish Community Center CFM", "zip": 94404, "open_mnt2": "", "open_mnt1": "January – December", "open_hrs1": "9:00 a.m. - 1:00 p.m.", "open_hrs2": "", "open_day2": "", "open_day1": "Wednesdays" }, "geometry": { "type": "Point", "coordinates": [ -122.2664, 37.559776, 0.0 ] } }
]
}
